$GPGGA,185152.719,6327.048,N,01023.198,E,1,12,1.0,0.0,M,0.0,M,,*67
$GPGSA,A,3,01,02,03,04,05,06,07,08,09,10,11,12,1.0,1.0,1.0*30
$GPRMC,185152.719,A,6327.048,N,01023.198,E,156.7,239.6,260922,000.0,W*75
$GPGGA,185153.719,6327.013,N,01023.139,E,1,12,1.0,0.0,M,0.0,M,,*63
$GPGSA,A,3,01,02,03,04,05,06,07,08,09,10,11,12,1.0,1.0,1.0*30
$GPRMC,185153.719,A,6327.013,N,01023.139,E,173.1,262.3,260922,000.0,W*7B
$GPGGA,185154.719,6326.999,N,01023.036,E,1,12,1.0,0.0,M,0.0,M,,*60
$GPGSA,A,3,01,02,03,04,05,06,07,08,09,10,11,12,1.0,1.0,1.0*30
$GPRMC,185154.719,A,6326.999,N,01023.036,E,049.9,267.9,260922,000.0,W*77
$GPGGA,185155.719,6326.998,N,01023.005,E,1,12,1.0,0.0,M,0.0,M,,*60
$GPGSA,A,3,01,02,03,04,05,06,07,08,09,10,11,12,1.0,1.0,1.0*30
$GPRMC,185155.719,A,6326.998,N,01023.005,E,075.1,272.9,260922,000.0,W*74
$GPGGA,185156.719,6327.001,N,01022.958,E,1,12,1.0,0.0,M,0.0,M,,*6B
$GPGSA,A,3,01,02,03,04,05,06,07,08,09,10,11,12,1.0,1.0,1.0*30
$GPRMC,185156.719,A,6327.001,N,01022.958,E,085.5,276.4,260922,000.0,W*7D
$GPGGA,185157.719,6327.006,N,01022.907,E,1,12,1.0,0.0,M,0.0,M,,*67
$GPGSA,A,3,01,02,03,04,05,06,07,08,09,10,11,12,1.0,1.0,1.0*30
$GPRMC,185157.719,A,6327.006,N,01022.907,E,055.8,296.6,260922,000.0,W*7D
$GPGGA,185158.719,6327.018,N,01022.884,E,1,12,1.0,0.0,M,0.0,M,,*6D
$GPGSA,A,3,01,02,03,04,05,06,07,08,09,10,11,12,1.0,1.0,1.0*30
$GPRMC,185158.719,A,6327.018,N,01022.884,E,090.9,315.0,260922,000.0,W*73
$GPGGA,185159.719,6327.041,N,01022.860,E,1,12,1.0,0.0,M,0.0,M,,*6A
$GPGSA,A,3,01,02,03,04,05,06,07,08,09,10,11,12,1.0,1.0,1.0*30
$GPRMC,185159.719,A,6327.041,N,01022.860,E,057.7,319.5,260922,000.0,W*78
$GPGGA,185200.719,6327.056,N,01022.848,E,1,12,1.0,0.0,M,0.0,M,,*69
$GPGSA,A,3,01,02,03,04,05,06,07,08,09,10,11,12,1.0,1.0,1.0*30
$GPRMC,185200.719,A,6327.056,N,01022.848,E,128.6,319.9,260922,000.0,W*7F
$GPGGA,185201.719,6327.089,N,01022.819,E,1,12,1.0,0.0,M,0.0,M,,*6E
$GPGSA,A,3,01,02,03,04,05,06,07,08,09,10,11,12,1.0,1.0,1.0*30
$GPRMC,185201.719,A,6327.089,N,01022.819,E,100.3,344.5,260922,000.0,W*73
$GPGGA,185202.719,6327.117,N,01022.812,E,1,12,1.0,0.0,M,0.0,M,,*60
$GPGSA,A,3,01,02,03,04,05,06,07,08,09,10,11,12,1.0,1.0,1.0*30
$GPRMC,185202.719,A,6327.117,N,01022.812,E,097.6,025.8,260922,000.0,W*7E
$GPGGA,185203.719,6327.143,N,01022.824,E,1,12,1.0,0.0,M,0.0,M,,*65
$GPGSA,A,3,01,02,03,04,05,06,07,08,09,10,11,12,1.0,1.0,1.0*30
$GPRMC,185203.719,A,6327.143,N,01022.824,E,082.3,068.7,260922,000.0,W*7C
$GPGGA,185204.719,6327.158,N,01022.863,E,1,12,1.0,0.0,M,0.0,M,,*6B
$GPGSA,A,3,01,02,03,04,05,06,07,08,09,10,11,12,1.0,1.0,1.0*30
$GPRMC,185204.719,A,6327.158,N,01022.863,E,182.6,061.4,260922,000.0,W*7C
$GPGGA,185205.719,6327.197,N,01022.935,E,1,12,1.0,0.0,M,0.0,M,,*6B
$GPGSA,A,3,01,02,03,04,05,06,07,08,09,10,11,12,1.0,1.0,1.0*30
$GPRMC,185205.719,A,6327.197,N,01022.935,E,097.8,058.6,260922,000.0,W*7F
$GPGGA,185206.719,6327.219,N,01022.971,E,1,12,1.0,0.0,M,0.0,M,,*6D
$GPGSA,A,3,01,02,03,04,05,06,07,08,09,10,11,12,1.0,1.0,1.0*30
$GPRMC,185206.719,A,6327.219,N,01022.971,E,071.3,057.8,260922,000.0,W*7B
$GPGGA,185207.719,6327.235,N,01022.997,E,1,12,1.0,0.0,M,0.0,M,,*6A
$GPGSA,A,3,01,02,03,04,05,06,07,08,09,10,11,12,1.0,1.0,1.0*30
$GPRMC,185207.719,A,6327.235,N,01022.997,E,094.5,070.7,260922,000.0,W*7B
$GPGGA,185208.719,6327.252,N,01023.043,E,1,12,1.0,0.0,M,0.0,M,,*65
$GPGSA,A,3,01,02,03,04,05,06,07,08,09,10,11,12,1.0,1.0,1.0*30
$GPRMC,185208.719,A,6327.252,N,01023.043,E,078.7,081.5,260922,000.0,W*78
$GPGGA,185209.719,6327.258,N,01023.090,E,1,12,1.0,0.0,M,0.0,M,,*60
$GPGSA,A,3,01,02,03,04,05,06,07,08,09,10,11,12,1.0,1.0,1.0*30
$GPRMC,185209.719,A,6327.258,N,01023.090,E,106.6,083.8,260922,000.0,W*7B
$GPGGA,185210.719,6327.265,N,01023.154,E,1,12,1.0,0.0,M,0.0,M,,*6F
$GPGSA,A,3,01,02,03,04,05,06,07,08,09,10,11,12,1.0,1.0,1.0*30
$GPRMC,185210.719,A,6327.265,N,01023.154,E,106.6,083.8,260922,000.0,W*74
$GPGGA,185211.719,6327.272,N,01023.218,E,1,12,1.0,0.0,M,0.0,M,,*63
$GPGSA,A,3,01,02,03,04,05,06,07,08,09,10,11,12,1.0,1.0,1.0*30
$GPRMC,185211.719,A,6327.272,N,01023.218,E,083.9,106.2,260922,000.0,W*7D
$GPGGA,185212.719,6327.260,N,01023.262,E,1,12,1.0,0.0,M,0.0,M,,*6E
$GPGSA,A,3,01,02,03,04,05,06,07,08,09,10,11,12,1.0,1.0,1.0*30
$GPRMC,185212.719,A,6327.260,N,01023.262,E,160.2,157.7,260922,000.0,W*76
$GPGGA,185213.719,6327.216,N,01023.280,E,1,12,1.0,0.0,M,0.0,M,,*62
$GPGSA,A,3,01,02,03,04,05,06,07,08,09,10,11,12,1.0,1.0,1.0*30
$GPRMC,185213.719,A,6327.216,N,01023.280,E,079.7,199.3,260922,000.0,W*70
$GPGGA,185214.719,6327.194,N,01023.272,E,1,12,1.0,0.0,M,0.0,M,,*61
$GPGSA,A,3,01,02,03,04,05,06,07,08,09,10,11,12,1.0,1.0,1.0*30
$GPRMC,185214.719,A,6327.194,N,01023.272,E,101.6,155.1,260922,000.0,W*7E
$GPGGA,185215.719,6327.166,N,01023.285,E,1,12,1.0,0.0,M,0.0,M,,*65
$GPGSA,A,3,01,02,03,04,05,06,07,08,09,10,11,12,1.0,1.0,1.0*30
$GPRMC,185215.719,A,6327.166,N,01023.285,E,074.7,236.0,260922,000.0,W*7F
$GPGGA,185216.719,6327.149,N,01023.260,E,1,12,1.0,0.0,M,0.0,M,,*60
$GPGSA,A,3,01,02,03,04,05,06,07,08,09,10,11,12,1.0,1.0,1.0*30
$GPRMC,185216.719,A,6327.149,N,01023.260,E,062.2,180.0,260922,000.0,W*76
$GPGGA,185217.719,6327.132,N,01023.260,E,1,12,1.0,0.0,M,0.0,M,,*6D
$GPGSA,A,3,01,02,03,04,05,06,07,08,09,10,11,12,1.0,1.0,1.0*30
$GPRMC,185217.719,A,6327.132,N,01023.260,E,119.6,236.0,260922,000.0,W*7C
$GPGGA,185218.719,6327.104,N,01023.218,E,1,12,1.0,0.0,M,0.0,M,,*68
$GPGSA,A,3,01,02,03,04,05,06,07,08,09,10,11,12,1.0,1.0,1.0*30
$GPRMC,185218.719,A,6327.104,N,01023.218,E,072.4,152.4,260922,000.0,W*72
$GPGGA,185219.719,6327.085,N,01023.229,E,1,12,1.0,0.0,M,0.0,M,,*63
$GPGSA,A,3,01,02,03,04,05,06,07,08,09,10,11,12,1.0,1.0,1.0*30
$GPRMC,185219.719,A,6327.085,N,01023.229,E,071.3,237.8,260922,000.0,W*71
$GPGGA,185220.719,6327.069,N,01023.203,E,1,12,1.0,0.0,M,0.0,M,,*63
$GPGSA,A,3,01,02,03,04,05,06,07,08,09,10,11,12,1.0,1.0,1.0*30
$GPRMC,185220.719,A,6327.069,N,01023.203,E,071.3,237.8,260922,000.0,W*71
